$GPGGA,081832.432,5232.076,N,01319.997,E,1,12,1.0,0.0,M,0.0,M,,*61
$GPGSA,A,3,01,02,03,04,05,06,07,08,09,10,11,12,1.0,1.0,1.0*30
$GPRMC,081832.432,A,5232.076,N,01319.997,E,16896.5,083.0,010321,000.0,W*7A
$GPGGA,081833.432,5233.003,N,01327.557,E,1,12,1.0,0.0,M,0.0,M,,*6E
$GPGSA,A,3,01,02,03,04,05,06,07,08,09,10,11,12,1.0,1.0,1.0*30
$GPRMC,081833.432,A,5233.003,N,01327.557,E,5251.9,138.1,010321,000.0,W*4A
$GPGGA,081834.432,5231.725,N,01328.710,E,1,12,1.0,0.0,M,0.0,M,,*66
$GPGSA,A,3,01,02,03,04,05,06,07,08,09,10,11,12,1.0,1.0,1.0*30
$GPRMC,081834.432,A,5231.725,N,01328.710,E,10322.8,200.1,010321,000.0,W*7A
$GPGGA,081835.432,5228.929,N,01327.681,E,1,12,1.0,0.0,M,0.0,M,,*6B
$GPGSA,A,3,01,02,03,04,05,06,07,08,09,10,11,12,1.0,1.0,1.0*30
$GPRMC,081835.432,A,5228.929,N,01327.681,E,6736.3,180.6,010321,000.0,W*46
$GPGGA,081836.432,5227.059,N,01327.660,E,1,12,1.0,0.0,M,0.0,M,,*66
$GPGSA,A,3,01,02,03,04,05,06,07,08,09,10,11,12,1.0,1.0,1.0*30
$GPRMC,081836.432,A,5227.059,N,01327.660,E,7741.8,112.8,010321,000.0,W*44
$GPGGA,081837.432,5225.841,N,01330.564,E,1,12,1.0,0.0,M,0.0,M,,*65
$GPGSA,A,3,01,02,03,04,05,06,07,08,09,10,11,12,1.0,1.0,1.0*30
$GPRMC,081837.432,A,5225.841,N,01330.564,E,5937.2,096.5,010321,000.0,W*40
$GPGGA,081838.432,5225.540,N,01333.222,E,1,12,1.0,0.0,M,0.0,M,,*60
$GPGSA,A,3,01,02,03,04,05,06,07,08,09,10,11,12,1.0,1.0,1.0*30
$GPRMC,081838.432,A,5225.540,N,01333.222,E,4621.6,166.4,010321,000.0,W*47
$GPGGA,081839.432,5224.271,N,01333.531,E,1,12,1.0,0.0,M,0.0,M,,*60
$GPGSA,A,3,01,02,03,04,05,06,07,08,09,10,11,12,1.0,1.0,1.0*30
$GPRMC,081839.432,A,5224.271,N,01333.531,E,6897.0,250.6,010321,000.0,W*44
$GPGGA,081840.432,5223.316,N,01330.812,E,1,12,1.0,0.0,M,0.0,M,,*66
$GPGSA,A,3,01,02,03,04,05,06,07,08,09,10,11,12,1.0,1.0,1.0*30
$GPRMC,081840.432,A,5223.316,N,01330.812,E,4619.4,241.3,010321,000.0,W*49
$GPGGA,081841.432,5222.460,N,01329.246,E,1,12,1.0,0.0,M,0.0,M,,*63
$GPGSA,A,3,01,02,03,04,05,06,07,08,09,10,11,12,1.0,1.0,1.0*30
$GPRMC,081841.432,A,5222.460,N,01329.246,E,6336.8,246.5,010321,000.0,W*4B
$GPGGA,081842.432,5221.442,N,01326.898,E,1,12,1.0,0.0,M,0.0,M,,*65
$GPGSA,A,3,01,02,03,04,05,06,07,08,09,10,11,12,1.0,1.0,1.0*30
$GPRMC,081842.432,A,5221.442,N,01326.898,E,7245.7,279.7,010321,000.0,W*48
$GPGGA,081843.432,5221.983,N,01323.725,E,1,12,1.0,0.0,M,0.0,M,,*68
$GPGSA,A,3,01,02,03,04,05,06,07,08,09,10,11,12,1.0,1.0,1.0*30
$GPRMC,081843.432,A,5221.983,N,01323.725,E,8750.1,279.7,010321,000.0,W*4D
$GPGGA,081844.432,5222.637,N,01319.894,E,1,12,1.0,0.0,M,0.0,M,,*60
$GPGSA,A,3,01,02,03,04,05,06,07,08,09,10,11,12,1.0,1.0,1.0*30
$GPRMC,081844.432,A,5222.637,N,01319.894,E,5028.1,254.4,010321,000.0,W*4C
$GPGGA,081845.432,5222.058,N,01317.813,E,1,12,1.0,0.0,M,0.0,M,,*6F
$GPGSA,A,3,01,02,03,04,05,06,07,08,09,10,11,12,1.0,1.0,1.0*30
$GPRMC,081845.432,A,5222.058,N,01317.813,E,5661.8,209.5,010321,000.0,W*48
$GPGGA,081846.432,5220.573,N,01316.969,E,1,12,1.0,0.0,M,0.0,M,,*6F
$GPGSA,A,3,01,02,03,04,05,06,07,08,09,10,11,12,1.0,1.0,1.0*30
$GPRMC,081846.432,A,5220.573,N,01316.969,E,6512.0,171.6,010321,000.0,W*4B
$GPGGA,081847.432,5218.773,N,01317.237,E,1,12,1.0,0.0,M,0.0,M,,*66
$GPGSA,A,3,01,02,03,04,05,06,07,08,09,10,11,12,1.0,1.0,1.0*30
$GPRMC,081847.432,A,5218.773,N,01317.237,E,4160.7,101.6,010321,000.0,W*41
$GPGGA,081848.432,5218.408,N,01319.029,E,1,12,1.0,0.0,M,0.0,M,,*65
$GPGSA,A,3,01,02,03,04,05,06,07,08,09,10,11,12,1.0,1.0,1.0*30
$GPRMC,081848.432,A,5218.408,N,01319.029,E,5357.0,088.8,010321,000.0,W*4C
$GPGGA,081849.432,5218.458,N,01321.460,E,1,12,1.0,0.0,M,0.0,M,,*63
$GPGSA,A,3,01,02,03,04,05,06,07,08,09,10,11,12,1.0,1.0,1.0*30
$GPRMC,081849.432,A,5218.458,N,01321.460,E,7849.5,090.2,010321,000.0,W*4A
$GPGGA,081850.432,5218.446,N,01325.023,E,1,12,1.0,0.0,M,0.0,M,,*63
$GPGSA,A,3,01,02,03,04,05,06,07,08,09,10,11,12,1.0,1.0,1.0*30
$GPRMC,081850.432,A,5218.446,N,01325.023,E,7699.5,085.0,010321,000.0,W*4F
$GPGGA,081851.432,5218.748,N,01328.484,E,1,12,1.0,0.0,M,0.0,M,,*6B
$GPGSA,A,3,01,02,03,04,05,06,07,08,09,10,11,12,1.0,1.0,1.0*30
$GPRMC,081851.432,A,5218.748,N,01328.484,E,5204.4,080.9,010321,000.0,W*48
$GPGGA,081852.432,5219.113,N,01330.770,E,1,12,1.0,0.0,M,0.0,M,,*60
$GPGSA,A,3,01,02,03,04,05,06,07,08,09,10,11,12,1.0,1.0,1.0*30
$GPRMC,081852.432,A,5219.113,N,01330.770,E,5624.8,090.0,010321,000.0,W*41
$GPGGA,081853.432,5219.113,N,01333.325,E,1,12,1.0,0.0,M,0.0,M,,*66
$GPGSA,A,3,01,02,03,04,05,06,07,08,09,10,11,12,1.0,1.0,1.0*30
$GPRMC,081853.432,A,5219.113,N,01333.325,E,5624.8,090.0,010321,000.0,W*47
